{"features":[{"geometry":{"type":"Point","coordinates":[120.9731197357,14.6113047664]},"properties":{"onestop_id":"s-wdw50gcvjb-tutubanpnr","created_at":"2017-03-13T17:47:42.251Z","updated_at":"2020-03-10T17:07:21.303Z","tags":{"osm_way_id":"615871295","wheelchair_boarding":"0"},"created_or_updated_in_changeset_id":5976,"name":"Tutuban PNR","timezone":"Asia/Manila","osm_way_id":615871295,"served_by_vehicle_types":["rail"],"parent_stop_onestop_id":null,"wheelchair_boarding":null,"geometry_reversegeo":null,"geometry_centroid":{"type":"Point","coordinates":[120.9731197357,14.6113047664]},"operators_serving_stop":[{"operator_name":"Philippine National Railways","operator_onestop_id":"o-wdw4-philippinenationalrailways"}],"routes_serving_stop":[{"operator_name":"Philippine National Railways","operator_onestop_id":"o-wdw4-philippinenationalrailways","route_name":"PNR MC","route_onestop_id":"r-wdw4-pnrmc"}],"title":"s-wdw50gcvjb-tutubanpnr"},"type":"Feature","id":"s-wdw50gcvjb-tutubanpnr"},{"geometry":{"type":"Point","coordinates":[120.9845995903,14.6225687949]},"properties":{"onestop_id":"s-wdw51jfq9k-blumentrittpnr","created_at":"2017-03-13T17:47:42.997Z","updated_at":"2020-03-04T15:09:49.337Z","tags":{"osm_way_id":"22918910","wheelchair_boarding":"0"},"created_or_updated_in_changeset_id":5976,"name":"Blumentritt PNR","timezone":"Asia/Manila","osm_way_id":22918910,"served_by_vehicle_types":["rail"],"parent_stop_onestop_id":null,"wheelchair_boarding":null,"geometry_reversegeo":null,"geometry_centroid":{"type":"Point","coordinates":[120.9845995903,14.6225687949]},"operators_serving_stop":[{"operator_name":"Philippine National Railways","operator_onestop_id":"o-wdw4-philippinenationalrailways"}],"routes_serving_stop":[{"operator_name":"Philippine National Railways","operator_onestop_id":"o-wdw4-philippinenationalrailways","route_name":"PNR MC","route_onestop_id":"r-wdw4-pnrmc"}],"title":"s-wdw51jfq9k-blumentrittpnr"},"type":"Feature","id":"s-wdw51jfq9k-blumentrittpnr"},{"geometry":{"type":"Point","coordinates":[120.9928822517,14.6164229634]},"properties":{"onestop_id":"s-wdw51kb6f6-dapitan~laonlaanpnr","created_at":"2017-03-13T17:47:43.744Z","updated_at":"2020-03-04T03:55:35.231Z","tags":{"osm_way_id":"9162842","wheelchair_boarding":"0"},"created_or_updated_in_changeset_id":5976,"name":"Dapitan/Laon Laan PNR","timezone":"Asia/Manila","osm_way_id":9162842,"served_by_vehicle_types":["rail"],"parent_stop_onestop_id":null,"wheelchair_boarding":null,"geometry_reversegeo":null,"geometry_centroid":{"type":"Point","coordinates":[120.9928822517,14.6164229634]},"operators_serving_stop":[{"operator_name":"Philippine National Railways","operator_onestop_id":"o-wdw4-philippinenationalrailways"}],"routes_serving_stop":[{"operator_name":"Philippine National Railways","operator_onestop_id":"o-wdw4-philippinenationalrailways","route_name":"PNR MC","route_onestop_id":"r-wdw4-pnrmc"}],"title":"s-wdw51kb6f6-dapitan~laonlaanpnr"},"type":"Feature","id":"s-wdw51kb6f6-dapitan~laonlaanpnr"},{"geometry":{"type":"Point","coordinates":[120.99666953086853,14.612415622489207]},"properties":{"onestop_id":"s-wdw51k556x-españapnr","created_at":"2017-03-13T17:47:44.487Z","updated_at":"2020-03-10T10:04:38.736Z","tags":{"osm_way_id":"9495736","wheelchair_boarding":"0"},"created_or_updated_in_changeset_id":5089,"name":"España PNR","timezone":"Asia/Manila","osm_way_id":9495736,"served_by_vehicle_types":["rail"],"parent_stop_onestop_id":null,"wheelchair_boarding":null,"geometry_reversegeo":null,"geometry_centroid":{"type":"Point","coordinates":[120.99666953086853,14.612415622489207]},"operators_serving_stop":[{"operator_name":"Philippine National Railways","operator_onestop_id":"o-wdw4-philippinenationalrailways"}],"routes_serving_stop":[{"operator_name":"Philippine National Railways","operator_onestop_id":"o-wdw4-philippinenationalrailways","route_name":"PNR MC","route_onestop_id":"r-wdw4-pnrmc"}],"title":"s-wdw51k556x-españapnr"},"type":"Feature","id":"s-wdw51k556x-españapnr"},{"geometry":{"type":"Point","coordinates":[121.0102844238,14.6006423383]},"properties":{"onestop_id":"s-wdw519uyzv-santamesapnr","created_at":"2017-03-13T17:47:45.298Z","updated_at":"2020-03-10T15:46:50.985Z","tags":{"osm_way_id":"562605129","wheelchair_boarding":"0"},"created_or_updated_in_changeset_id":5976,"name":"Santa Mesa PNR","timezone":"Asia/Manila","osm_way_id":562605129,"served_by_vehicle_types":["rail"],"parent_stop_onestop_id":null,"wheelchair_boarding":null,"geometry_reversegeo":null,"geometry_centroid":{"type":"Point","coordinates":[121.0102844238,14.6006423383]},"operators_serving_stop":[{"operator_name":"Philippine National Railways","operator_onestop_id":"o-wdw4-philippinenationalrailways"}],"routes_serving_stop":[{"operator_name":"Philippine National Railways","operator_onestop_id":"o-wdw4-philippinenationalrailways","route_name":"PNR MC","route_onestop_id":"r-wdw4-pnrmc"}],"title":"s-wdw519uyzv-santamesapnr"},"type":"Feature","id":"s-wdw519uyzv-santamesapnr"},{"geometry":{"type":"Point","coordinates":[121.009093523,14.5907373413]},"properties":{"onestop_id":"s-wdw518hjhn-pandacanpnr","created_at":"2017-03-13T17:47:46.065Z","updated_at":"2020-03-05T12:37:30.384Z","tags":{"osm_way_id":"24516683","wheelchair_boarding":"0"},"created_or_updated_in_changeset_id":5976,"name":"Pandacan PNR","timezone":"Asia/Manila","osm_way_id":24516683,"served_by_vehicle_types":["rail"],"parent_stop_onestop_id":null,"wheelchair_boarding":null,"geometry_reversegeo":null,"geometry_centroid":{"type":"Point","coordinates":[121.009093523,14.5907373413]},"operators_serving_stop":[{"operator_name":"Philippine National Railways","operator_onestop_id":"o-wdw4-philippinenationalrailways"}],"routes_serving_stop":[{"operator_name":"Philippine National Railways","operator_onestop_id":"o-wdw4-philippinenationalrailways","route_name":"PNR MC","route_onestop_id":"r-wdw4-pnrmc"}],"title":"s-wdw518hjhn-pandacanpnr"},"type":"Feature","id":"s-wdw518hjhn-pandacanpnr"},{"geometry":{"type":"Point","coordinates":[120.99916934967041,14.579025197457991]},"properties":{"onestop_id":"s-wdw4cqhbuz-pacopnr","created_at":"2017-03-13T17:47:46.811Z","updated_at":"2020-03-10T20:08:41.577Z","tags":{"osm_way_id":"28724490","wheelchair_boarding":"0"},"created_or_updated_in_changeset_id":5089,"name":"Paco PNR","timezone":"Asia/Manila","osm_way_id":28724490,"served_by_vehicle_types":["rail"],"parent_stop_onestop_id":null,"wheelchair_boarding":null,"geometry_reversegeo":null,"geometry_centroid":{"type":"Point","coordinates":[120.99916934967041,14.579025197457991]},"operators_serving_stop":[{"operator_name":"Philippine National Railways","operator_onestop_id":"o-wdw4-philippinenationalrailways"}],"routes_serving_stop":[{"operator_name":"Philippine National Railways","operator_onestop_id":"o-wdw4-philippinenationalrailways","route_name":"PNR MC","route_onestop_id":"r-wdw4-pnrmc"}],"title":"s-wdw4cqhbuz-pacopnr"},"type":"Feature","id":"s-wdw4cqhbuz-pacopnr"},{"geometry":{"type":"Point","coordinates":[120.99970579147339,14.572878149340646]},"properties":{"onestop_id":"s-wdw4ckvm1m-sanandrespnr","created_at":"2017-03-13T17:47:47.555Z","updated_at":"2020-03-05T06:52:01.885Z","tags":{"osm_way_id":"154422816","wheelchair_boarding":"0"},"created_or_updated_in_changeset_id":5089,"name":"San Andres PNR","timezone":"Asia/Manila","osm_way_id":154422816,"served_by_vehicle_types":["rail"],"parent_stop_onestop_id":null,"wheelchair_boarding":null,"geometry_reversegeo":null,"geometry_centroid":{"type":"Point","coordinates":[120.99970579147339,14.572878149340646]},"operators_serving_stop":[{"operator_name":"Philippine National Railways","operator_onestop_id":"o-wdw4-philippinenationalrailways"}],"routes_serving_stop":[{"operator_name":"Philippine National Railways","operator_onestop_id":"o-wdw4-philippinenationalrailways","route_name":"PNR MC","route_onestop_id":"r-wdw4-pnrmc"}],"title":"s-wdw4ckvm1m-sanandrespnr"},"type":"Feature","id":"s-wdw4ckvm1m-sanandrespnr"},{"geometry":{"type":"Point","coordinates":[121.0029351711,14.5668970731]},"properties":{"onestop_id":"s-wdw4c7zdkd-vitocruzpnr","created_at":"2017-03-13T17:47:48.303Z","updated_at":"2020-03-10T17:14:21.592Z","tags":{"osm_way_id":"48345696","wheelchair_boarding":"0"},"created_or_updated_in_changeset_id":5976,"name":"Vito Cruz PNR","timezone":"Asia/Manila","osm_way_id":48345696,"served_by_vehicle_types":["rail"],"parent_stop_onestop_id":null,"wheelchair_boarding":null,"geometry_reversegeo":null,"geometry_centroid":{"type":"Point","coordinates":[121.0029351711,14.5668970731]},"operators_serving_stop":[{"operator_name":"Philippine National Railways","operator_onestop_id":"o-wdw4-philippinenationalrailways"}],"routes_serving_stop":[{"operator_name":"Philippine National Railways","operator_onestop_id":"o-wdw4-philippinenationalrailways","route_name":"PNR MC","route_onestop_id":"r-wdw4-pnrmc"}],"title":"s-wdw4c7zdkd-vitocruzpnr"},"type":"Feature","id":"s-wdw4c7zdkd-vitocruzpnr"},{"geometry":{"type":"Point","coordinates":[121.00803136825562,14.557374781882407]},"properties":{"onestop_id":"s-wdw4cd56g7-buendiapnr","created_at":"2017-03-13T17:47:49.049Z","updated_at":"2020-03-04T03:20:31.465Z","tags":{"osm_way_id":"4226961","wheelchair_boarding":"0"},"created_or_updated_in_changeset_id":5089,"name":"Buendia PNR","timezone":"Asia/Manila","osm_way_id":4226961,"served_by_vehicle_types":["rail"],"parent_stop_onestop_id":null,"wheelchair_boarding":null,"geometry_reversegeo":null,"geometry_centroid":{"type":"Point","coordinates":[121.00803136825562,14.557374781882407]},"operators_serving_stop":[{"operator_name":"Philippine National Railways","operator_onestop_id":"o-wdw4-philippinenationalrailways"}],"routes_serving_stop":[{"operator_name":"Philippine National Railways","operator_onestop_id":"o-wdw4-philippinenationalrailways","route_name":"PNR MC","route_onestop_id":"r-wdw4-pnrmc"}],"title":"s-wdw4cd56g7-buendiapnr"},"type":"Feature","id":"s-wdw4cd56g7-buendiapnr"},{"geometry":{"type":"Point","coordinates":[121.01152896881105,14.550863665696266]},"properties":{"onestop_id":"s-wdw4c8vuvj-pasayroadpnr","created_at":"2017-03-13T17:47:49.800Z","updated_at":"2020-03-05T17:15:39.953Z","tags":{"osm_way_id":"762037987","wheelchair_boarding":"0"},"created_or_updated_in_changeset_id":5089,"name":"Pasay Road PNR","timezone":"Asia/Manila","osm_way_id":762037987,"served_by_vehicle_types":["rail"],"parent_stop_onestop_id":null,"wheelchair_boarding":null,"geometry_reversegeo":null,"geometry_centroid":{"type":"Point","coordinates":[121.01152896881105,14.550863665696266]},"operators_serving_stop":[{"operator_name":"Philippine National Railways","operator_onestop_id":"o-wdw4-philippinenationalrailways"}],"routes_serving_stop":[{"operator_name":"Philippine National Railways","operator_onestop_id":"o-wdw4-philippinenationalrailways","route_name":"PNR MC","route_onestop_id":"r-wdw4-pnrmc"}],"title":"s-wdw4c8vuvj-pasayroadpnr"},"type":"Feature","id":"s-wdw4c8vuvj-pasayroadpnr"},{"geometry":{"type":"Point","coordinates":[121.01696848869324,14.540717572369005]},"properties":{"onestop_id":"s-wdw49z1cgd-edsapnr","created_at":"2017-03-13T17:47:50.586Z","updated_at":"2020-03-04T03:27:13.612Z","tags":{"osm_way_id":"28572725","wheelchair_boarding":"0"},"created_or_updated_in_changeset_id":5089,"name":"EDSA PNR","timezone":"Asia/Manila","osm_way_id":28572725,"served_by_vehicle_types":["rail"],"parent_stop_onestop_id":null,"wheelchair_boarding":null,"geometry_reversegeo":null,"geometry_centroid":{"type":"Point","coordinates":[121.01696848869324,14.540717572369005]},"operators_serving_stop":[{"operator_name":"Philippine National Railways","operator_onestop_id":"o-wdw4-philippinenationalrailways"}],"routes_serving_stop":[{"operator_name":"Philippine National Railways","operator_onestop_id":"o-wdw4-philippinenationalrailways","route_name":"PNR MC","route_onestop_id":"r-wdw4-pnrmc"}],"title":"s-wdw49z1cgd-edsapnr"},"type":"Feature","id":"s-wdw49z1cgd-edsapnr"},{"geometry":{"type":"Point","coordinates":[121.02628111839294,14.523560579652635]},"properties":{"onestop_id":"s-wdw4d5btue-nicholspnr","created_at":"2017-03-13T17:47:51.341Z","updated_at":"2020-03-04T04:14:44.926Z","tags":{"osm_way_id":"740776584","wheelchair_boarding":"0"},"created_or_updated_in_changeset_id":5089,"name":"Nichols PNR","timezone":"Asia/Manila","osm_way_id":740776584,"served_by_vehicle_types":["rail"],"parent_stop_onestop_id":null,"wheelchair_boarding":null,"geometry_reversegeo":null,"geometry_centroid":{"type":"Point","coordinates":[121.02628111839294,14.523560579652635]},"operators_serving_stop":[{"operator_name":"Philippine National Railways","operator_onestop_id":"o-wdw4-philippinenationalrailways"}],"routes_serving_stop":[{"operator_name":"Philippine National Railways","operator_onestop_id":"o-wdw4-philippinenationalrailways","route_name":"PNR MC","route_onestop_id":"r-wdw4-pnrmc"}],"title":"s-wdw4d5btue-nicholspnr"},"type":"Feature","id":"s-wdw4d5btue-nicholspnr"},{"geometry":{"type":"Point","coordinates":[121.0355508327,14.5063399351]},"properties":{"onestop_id":"s-wdw4d0z3s9-fticomplexpnr","created_at":"2017-03-13T17:47:52.192Z","updated_at":"2020-03-04T22:41:12.978Z","tags":{"osm_way_id":"620785019","wheelchair_boarding":"0"},"created_or_updated_in_changeset_id":5976,"name":"FTI Complex PNR","timezone":"Asia/Manila","osm_way_id":620785019,"served_by_vehicle_types":["rail"],"parent_stop_onestop_id":null,"wheelchair_boarding":null,"geometry_reversegeo":null,"geometry_centroid":{"type":"Point","coordinates":[121.0355508327,14.5063399351]},"operators_serving_stop":[{"operator_name":"Philippine National Railways","operator_onestop_id":"o-wdw4-philippinenationalrailways"}],"routes_serving_stop":[{"operator_name":"Philippine National Railways","operator_onestop_id":"o-wdw4-philippinenationalrailways","route_name":"PNR MC","route_onestop_id":"r-wdw4-pnrmc"}],"title":"s-wdw4d0z3s9-fticomplexpnr"},"type":"Feature","id":"s-wdw4d0z3s9-fticomplexpnr"},{"geometry":{"type":"Point","coordinates":[121.04571104049683,14.487590967779626]},"properties":{"onestop_id":"s-wdw46mqu36-bicutanpnr","created_at":"2017-03-13T17:47:52.936Z","updated_at":"2020-03-04T02:35:16.555Z","tags":{"osm_way_id":"621415088","wheelchair_boarding":"0"},"created_or_updated_in_changeset_id":5089,"name":"Bicutan PNR","timezone":"Asia/Manila","osm_way_id":621415088,"served_by_vehicle_types":["rail"],"parent_stop_onestop_id":null,"wheelchair_boarding":null,"geometry_reversegeo":null,"geometry_centroid":{"type":"Point","coordinates":[121.04571104049683,14.487590967779626]},"operators_serving_stop":[{"operator_name":"Philippine National Railways","operator_onestop_id":"o-wdw4-philippinenationalrailways"}],"routes_serving_stop":[{"operator_name":"Philippine National Railways","operator_onestop_id":"o-wdw4-philippinenationalrailways","route_name":"PNR MC","route_onestop_id":"r-wdw4-pnrmc"}],"title":"s-wdw46mqu36-bicutanpnr"},"type":"Feature","id":"s-wdw46mqu36-bicutanpnr"},{"geometry":{"type":"Point","coordinates":[121.05093598365784,14.452384331722989]},"properties":{"onestop_id":"s-wdw44wfx5p-sucatpnr","created_at":"2017-03-13T17:47:53.680Z","updated_at":"2020-03-04T12:21:06.353Z","tags":{"osm_way_id":"27259075","wheelchair_boarding":"0"},"created_or_updated_in_changeset_id":5089,"name":"Sucat PNR","timezone":"Asia/Manila","osm_way_id":27259075,"served_by_vehicle_types":["rail"],"parent_stop_onestop_id":null,"wheelchair_boarding":null,"geometry_reversegeo":null,"geometry_centroid":{"type":"Point","coordinates":[121.05093598365784,14.452384331722989]},"operators_serving_stop":[{"operator_name":"Philippine National Railways","operator_onestop_id":"o-wdw4-philippinenationalrailways"}],"routes_serving_stop":[{"operator_name":"Philippine National Railways","operator_onestop_id":"o-wdw4-philippinenationalrailways","route_name":"PNR MC","route_onestop_id":"r-wdw4-pnrmc"}],"title":"s-wdw44wfx5p-sucatpnr"},"type":"Feature","id":"s-wdw44wfx5p-sucatpnr"},{"geometry":{"type":"Point","coordinates":[121.04769587516783,14.416839607879469]},"properties":{"onestop_id":"s-wdw44880pt-alabangpnr","created_at":"2017-03-13T17:47:54.426Z","updated_at":"2020-03-04T08:40:59.688Z","tags":{"osm_way_id":"122345440","wheelchair_boarding":"0"},"created_or_updated_in_changeset_id":5089,"name":"Alabang PNR","timezone":"Asia/Manila","osm_way_id":122345440,"served_by_vehicle_types":["rail"],"parent_stop_onestop_id":null,"wheelchair_boarding":null,"geometry_reversegeo":null,"geometry_centroid":{"type":"Point","coordinates":[121.04769587516783,14.416839607879469]},"operators_serving_stop":[{"operator_name":"Philippine National Railways","operator_onestop_id":"o-wdw4-philippinenationalrailways"}],"routes_serving_stop":[{"operator_name":"Philippine National Railways","operator_onestop_id":"o-wdw4-philippinenationalrailways","route_name":"PNR MC","route_onestop_id":"r-wdw4-pnrmc"}],"title":"s-wdw44880pt-alabangpnr"},"type":"Feature","id":"s-wdw44880pt-alabangpnr"},{"geometry":{"type":"Point","coordinates":[121.04761004447936,14.38924983545789]},"properties":{"onestop_id":"s-wdw1fe2pmw-muntinlupapnr","created_at":"2017-03-13T17:47:55.170Z","updated_at":"2020-03-05T14:59:48.722Z","tags":{"osm_way_id":"353501525","wheelchair_boarding":"0"},"created_or_updated_in_changeset_id":5089,"name":"Muntinlupa PNR","timezone":"Asia/Manila","osm_way_id":353501525,"served_by_vehicle_types":["rail"],"parent_stop_onestop_id":null,"wheelchair_boarding":null,"geometry_reversegeo":null,"geometry_centroid":{"type":"Point","coordinates":[121.04761004447936,14.38924983545789]},"operators_serving_stop":[{"operator_name":"Philippine National Railways","operator_onestop_id":"o-wdw4-philippinenationalrailways"}],"routes_serving_stop":[{"operator_name":"Philippine National Railways","operator_onestop_id":"o-wdw4-philippinenationalrailways","route_name":"PNR MC","route_onestop_id":"r-wdw4-pnrmc"}],"title":"s-wdw1fe2pmw-muntinlupapnr"},"type":"Feature","id":"s-wdw1fe2pmw-muntinlupapnr"},{"geometry":{"type":"Point","coordinates":[121.05380058288574,14.364566830138713]},"properties":{"onestop_id":"s-wdw1dwuxtv-sanpedropnr","created_at":"2017-03-13T17:47:55.921Z","updated_at":"2020-03-11T01:33:04.135Z","tags":{"osm_way_id":"422608639","wheelchair_boarding":"0"},"created_or_updated_in_changeset_id":5089,"name":"San Pedro PNR","timezone":"Asia/Manila","osm_way_id":422608639,"served_by_vehicle_types":["rail"],"parent_stop_onestop_id":null,"wheelchair_boarding":null,"geometry_reversegeo":null,"geometry_centroid":{"type":"Point","coordinates":[121.05380058288574,14.364566830138713]},"operators_serving_stop":[{"operator_name":"Philippine National Railways","operator_onestop_id":"o-wdw4-philippinenationalrailways"}],"routes_serving_stop":[{"operator_name":"Philippine National Railways","operator_onestop_id":"o-wdw4-philippinenationalrailways","route_name":"PNR MC","route_onestop_id":"r-wdw4-pnrmc"}],"title":"s-wdw1dwuxtv-sanpedropnr"},"type":"Feature","id":"s-wdw1dwuxtv-sanpedropnr"},{"geometry":{"type":"Point","coordinates":[121.0635101795,14.3468973221]},"properties":{"onestop_id":"s-wdw1dggb8p-pacitacomplexpnr","created_at":"2017-03-13T17:47:56.681Z","updated_at":"2020-03-10T15:22:31.176Z","tags":{"osm_way_id":"55351248","wheelchair_boarding":"0"},"created_or_updated_in_changeset_id":5976,"name":"Pacita Complex PNR","timezone":"Asia/Manila","osm_way_id":55351248,"served_by_vehicle_types":["rail"],"parent_stop_onestop_id":null,"wheelchair_boarding":null,"geometry_reversegeo":null,"geometry_centroid":{"type":"Point","coordinates":[121.0635101795,14.3468973221]},"operators_serving_stop":[{"operator_name":"Philippine National Railways","operator_onestop_id":"o-wdw4-philippinenationalrailways"}],"routes_serving_stop":[{"operator_name":"Philippine National Railways","operator_onestop_id":"o-wdw4-philippinenationalrailways","route_name":"PNR MC","route_onestop_id":"r-wdw4-pnrmc"}],"title":"s-wdw1dggb8p-pacitacomplexpnr"},"type":"Feature","id":"s-wdw1dggb8p-pacitacomplexpnr"},{"geometry":{"type":"Point","coordinates":[121.0752904415,14.336450869]},"properties":{"onestop_id":"s-wdw1e1u7fs-goldencity1pnr","created_at":"2017-03-13T17:47:57.426Z","updated_at":"2020-03-04T20:41:27.766Z","tags":{"osm_way_id":"93588859","wheelchair_boarding":"0"},"created_or_updated_in_changeset_id":5976,"name":"Golden City 1 PNR","timezone":"Asia/Manila","osm_way_id":93588859,"served_by_vehicle_types":["rail"],"parent_stop_onestop_id":null,"wheelchair_boarding":null,"geometry_reversegeo":null,"geometry_centroid":{"type":"Point","coordinates":[121.0752904415,14.336450869]},"operators_serving_stop":[{"operator_name":"Philippine National Railways","operator_onestop_id":"o-wdw4-philippinenationalrailways"}],"routes_serving_stop":[{"operator_name":"Philippine National Railways","operator_onestop_id":"o-wdw4-philippinenationalrailways","route_name":"PNR MC","route_onestop_id":"r-wdw4-pnrmc"}],"title":"s-wdw1e1u7fs-goldencity1pnr"},"type":"Feature","id":"s-wdw1e1u7fs-goldencity1pnr"},{"geometry":{"type":"Point","coordinates":[121.0814595222,14.331014363]},"properties":{"onestop_id":"s-wdw1e2bu4q-biñanpnr","created_at":"2017-03-13T17:47:58.170Z","updated_at":"2020-03-11T00:39:08.328Z","tags":{"osm_way_id":"119709657","wheelchair_boarding":"0"},"created_or_updated_in_changeset_id":5976,"name":"Biñan PNR","timezone":"Asia/Manila","osm_way_id":119709657,"served_by_vehicle_types":["rail"],"parent_stop_onestop_id":null,"wheelchair_boarding":null,"geometry_reversegeo":null,"geometry_centroid":{"type":"Point","coordinates":[121.0814595222,14.331014363]},"operators_serving_stop":[{"operator_name":"Philippine National Railways","operator_onestop_id":"o-wdw4-philippinenationalrailways"}],"routes_serving_stop":[{"operator_name":"Philippine National Railways","operator_onestop_id":"o-wdw4-philippinenationalrailways","route_name":"PNR MC","route_onestop_id":"r-wdw4-pnrmc"}],"title":"s-wdw1e2bu4q-biñanpnr"},"type":"Feature","id":"s-wdw1e2bu4q-biñanpnr"},{"geometry":{"type":"Point","coordinates":[120.9966695309,14.6124156225]},"properties":{"onestop_id":"s-wdw51k556z-españapnr","created_at":"2017-03-17T13:47:54.438Z","updated_at":"2020-03-10T19:03:16.048Z","tags":{"osm_way_id":"9495736","wheelchair_boarding":"0"},"created_or_updated_in_changeset_id":5976,"name":"España PNR","timezone":"Asia/Manila","osm_way_id":9495736,"served_by_vehicle_types":["rail"],"parent_stop_onestop_id":null,"wheelchair_boarding":null,"geometry_reversegeo":null,"geometry_centroid":{"type":"Point","coordinates":[120.9966695309,14.6124156225]},"operators_serving_stop":[{"operator_name":"Philippine National Railways","operator_onestop_id":"o-wdw4-philippinenationalrailways"}],"routes_serving_stop":[{"operator_name":"Philippine National Railways","operator_onestop_id":"o-wdw4-philippinenationalrailways","route_name":"PNR MC","route_onestop_id":"r-wdw4-pnrmc"}],"title":"s-wdw51k556z-españapnr"},"type":"Feature","id":"s-wdw51k556z-españapnr"},{"geometry":{"type":"Point","coordinates":[120.9991693497,14.5790251975]},"properties":{"onestop_id":"s-wdw4cqhbvp-pacopnr","created_at":"2017-03-17T13:47:55.924Z","updated_at":"2020-03-02T22:37:04.283Z","tags":{"osm_way_id":"28724490","wheelchair_boarding":"0"},"created_or_updated_in_changeset_id":5976,"name":"Paco PNR","timezone":"Asia/Manila","osm_way_id":28724490,"served_by_vehicle_types":["rail"],"parent_stop_onestop_id":null,"wheelchair_boarding":null,"geometry_reversegeo":null,"geometry_centroid":{"type":"Point","coordinates":[120.9991693497,14.5790251975]},"operators_serving_stop":[{"operator_name":"Philippine National Railways","operator_onestop_id":"o-wdw4-philippinenationalrailways"}],"routes_serving_stop":[{"operator_name":"Philippine National Railways","operator_onestop_id":"o-wdw4-philippinenationalrailways","route_name":"PNR MC","route_onestop_id":"r-wdw4-pnrmc"}],"title":"s-wdw4cqhbvp-pacopnr"},"type":"Feature","id":"s-wdw4cqhbvp-pacopnr"},{"geometry":{"type":"Point","coordinates":[120.9997057915,14.5728781493]},"properties":{"onestop_id":"s-wdw4ckvm1t-sanandrespnr","created_at":"2017-03-17T13:47:57.385Z","updated_at":"2020-03-05T01:12:51.223Z","tags":{"osm_way_id":"154422816","wheelchair_boarding":"0"},"created_or_updated_in_changeset_id":5976,"name":"San Andres PNR","timezone":"Asia/Manila","osm_way_id":154422816,"served_by_vehicle_types":["rail"],"parent_stop_onestop_id":null,"wheelchair_boarding":null,"geometry_reversegeo":null,"geometry_centroid":{"type":"Point","coordinates":[120.9997057915,14.5728781493]},"operators_serving_stop":[{"operator_name":"Philippine National Railways","operator_onestop_id":"o-wdw4-philippinenationalrailways"}],"routes_serving_stop":[{"operator_name":"Philippine National Railways","operator_onestop_id":"o-wdw4-philippinenationalrailways","route_name":"PNR MC","route_onestop_id":"r-wdw4-pnrmc"}],"title":"s-wdw4ckvm1t-sanandrespnr"},"type":"Feature","id":"s-wdw4ckvm1t-sanandrespnr"},{"geometry":{"type":"Point","coordinates":[121.0080313683,14.5573747819]},"properties":{"onestop_id":"s-wdw4cd56ge-buendiapnr","created_at":"2017-03-17T13:47:58.815Z","updated_at":"2020-03-05T13:35:48.640Z","tags":{"osm_way_id":"4226961","wheelchair_boarding":"0"},"created_or_updated_in_changeset_id":5976,"name":"Buendia PNR","timezone":"Asia/Manila","osm_way_id":4226961,"served_by_vehicle_types":["rail"],"parent_stop_onestop_id":null,"wheelchair_boarding":null,"geometry_reversegeo":null,"geometry_centroid":{"type":"Point","coordinates":[121.0080313683,14.5573747819]},"operators_serving_stop":[{"operator_name":"Philippine National Railways","operator_onestop_id":"o-wdw4-philippinenationalrailways"}],"routes_serving_stop":[{"operator_name":"Philippine National Railways","operator_onestop_id":"o-wdw4-philippinenationalrailways","route_name":"PNR MC","route_onestop_id":"r-wdw4-pnrmc"}],"title":"s-wdw4cd56ge-buendiapnr"},"type":"Feature","id":"s-wdw4cd56ge-buendiapnr"},{"geometry":{"type":"Point","coordinates":[121.0115289688,14.5508636657]},"properties":{"onestop_id":"s-wdw4c8vuuv-pasayroadpnr","created_at":"2017-03-17T13:48:00.281Z","updated_at":"2020-03-10T17:11:24.149Z","tags":{"osm_way_id":"762037987","wheelchair_boarding":"0"},"created_or_updated_in_changeset_id":5976,"name":"Pasay Road PNR","timezone":"Asia/Manila","osm_way_id":762037987,"served_by_vehicle_types":["rail"],"parent_stop_onestop_id":null,"wheelchair_boarding":null,"geometry_reversegeo":null,"geometry_centroid":{"type":"Point","coordinates":[121.0115289688,14.5508636657]},"operators_serving_stop":[{"operator_name":"Philippine National Railways","operator_onestop_id":"o-wdw4-philippinenationalrailways"}],"routes_serving_stop":[{"operator_name":"Philippine National Railways","operator_onestop_id":"o-wdw4-philippinenationalrailways","route_name":"PNR MC","route_onestop_id":"r-wdw4-pnrmc"}],"title":"s-wdw4c8vuuv-pasayroadpnr"},"type":"Feature","id":"s-wdw4c8vuuv-pasayroadpnr"},{"geometry":{"type":"Point","coordinates":[121.0169684887,14.5407175724]},"properties":{"onestop_id":"s-wdw49z1cgf-edsapnr","created_at":"2017-03-17T13:48:01.703Z","updated_at":"2020-03-04T03:05:15.722Z","tags":{"osm_way_id":"28572725","wheelchair_boarding":"0"},"created_or_updated_in_changeset_id":5976,"name":"EDSA PNR","timezone":"Asia/Manila","osm_way_id":28572725,"served_by_vehicle_types":["rail"],"parent_stop_onestop_id":null,"wheelchair_boarding":null,"geometry_reversegeo":null,"geometry_centroid":{"type":"Point","coordinates":[121.0169684887,14.5407175724]},"operators_serving_stop":[{"operator_name":"Philippine National Railways","operator_onestop_id":"o-wdw4-philippinenationalrailways"}],"routes_serving_stop":[{"operator_name":"Philippine National Railways","operator_onestop_id":"o-wdw4-philippinenationalrailways","route_name":"PNR MC","route_onestop_id":"r-wdw4-pnrmc"}],"title":"s-wdw49z1cgf-edsapnr"},"type":"Feature","id":"s-wdw49z1cgf-edsapnr"},{"geometry":{"type":"Point","coordinates":[121.0262811184,14.5235605797]},"properties":{"onestop_id":"s-wdw4d5btug-nicholspnr","created_at":"2017-03-17T13:48:03.185Z","updated_at":"2020-03-11T04:12:33.919Z","tags":{"osm_way_id":"740776584","wheelchair_boarding":"0"},"created_or_updated_in_changeset_id":5976,"name":"Nichols PNR","timezone":"Asia/Manila","osm_way_id":740776584,"served_by_vehicle_types":["rail"],"parent_stop_onestop_id":null,"wheelchair_boarding":null,"geometry_reversegeo":null,"geometry_centroid":{"type":"Point","coordinates":[121.0262811184,14.5235605797]},"operators_serving_stop":[{"operator_name":"Philippine National Railways","operator_onestop_id":"o-wdw4-philippinenationalrailways"}],"routes_serving_stop":[{"operator_name":"Philippine National Railways","operator_onestop_id":"o-wdw4-philippinenationalrailways","route_name":"PNR MC","route_onestop_id":"r-wdw4-pnrmc"}],"title":"s-wdw4d5btug-nicholspnr"},"type":"Feature","id":"s-wdw4d5btug-nicholspnr"},{"geometry":{"type":"Point","coordinates":[121.0457110405,14.4875909678]},"properties":{"onestop_id":"s-wdw46mqu3d-bicutanpnr","created_at":"2017-03-17T13:48:04.619Z","updated_at":"2020-03-10T23:05:05.406Z","tags":{"osm_way_id":"621415088","wheelchair_boarding":"0"},"created_or_updated_in_changeset_id":5976,"name":"Bicutan PNR","timezone":"Asia/Manila","osm_way_id":621415088,"served_by_vehicle_types":["rail"],"parent_stop_onestop_id":null,"wheelchair_boarding":null,"geometry_reversegeo":null,"geometry_centroid":{"type":"Point","coordinates":[121.0457110405,14.4875909678]},"operators_serving_stop":[{"operator_name":"Philippine National Railways","operator_onestop_id":"o-wdw4-philippinenationalrailways"}],"routes_serving_stop":[{"operator_name":"Philippine National Railways","operator_onestop_id":"o-wdw4-philippinenationalrailways","route_name":"PNR MC","route_onestop_id":"r-wdw4-pnrmc"}],"title":"s-wdw46mqu3d-bicutanpnr"},"type":"Feature","id":"s-wdw46mqu3d-bicutanpnr"},{"geometry":{"type":"Point","coordinates":[121.0509359837,14.4523843317]},"properties":{"onestop_id":"s-wdw44wfx5r-sucatpnr","created_at":"2017-03-17T13:48:06.054Z","updated_at":"2020-03-04T21:55:06.140Z","tags":{"osm_way_id":"27259075","wheelchair_boarding":"0"},"created_or_updated_in_changeset_id":5976,"name":"Sucat PNR","timezone":"Asia/Manila","osm_way_id":27259075,"served_by_vehicle_types":["rail"],"parent_stop_onestop_id":null,"wheelchair_boarding":null,"geometry_reversegeo":null,"geometry_centroid":{"type":"Point","coordinates":[121.0509359837,14.4523843317]},"operators_serving_stop":[{"operator_name":"Philippine National Railways","operator_onestop_id":"o-wdw4-philippinenationalrailways"}],"routes_serving_stop":[{"operator_name":"Philippine National Railways","operator_onestop_id":"o-wdw4-philippinenationalrailways","route_name":"PNR MC","route_onestop_id":"r-wdw4-pnrmc"}],"title":"s-wdw44wfx5r-sucatpnr"},"type":"Feature","id":"s-wdw44wfx5r-sucatpnr"},{"geometry":{"type":"Point","coordinates":[121.0476958752,14.4168396079]},"properties":{"onestop_id":"s-wdw44880pv-alabangpnr","created_at":"2017-03-17T13:48:07.492Z","updated_at":"2020-03-04T03:22:01.453Z","tags":{"osm_way_id":"122345440","wheelchair_boarding":"0"},"created_or_updated_in_changeset_id":5976,"name":"Alabang PNR","timezone":"Asia/Manila","osm_way_id":122345440,"served_by_vehicle_types":["rail"],"parent_stop_onestop_id":null,"wheelchair_boarding":null,"geometry_reversegeo":null,"geometry_centroid":{"type":"Point","coordinates":[121.0476958752,14.4168396079]},"operators_serving_stop":[{"operator_name":"Philippine National Railways","operator_onestop_id":"o-wdw4-philippinenationalrailways"}],"routes_serving_stop":[{"operator_name":"Philippine National Railways","operator_onestop_id":"o-wdw4-philippinenationalrailways","route_name":"PNR MC","route_onestop_id":"r-wdw4-pnrmc"}],"title":"s-wdw44880pv-alabangpnr"},"type":"Feature","id":"s-wdw44880pv-alabangpnr"},{"geometry":{"type":"Point","coordinates":[121.0476100445,14.3892498355]},"properties":{"onestop_id":"s-wdw1fe2pmy-muntinlupapnr","created_at":"2017-03-17T13:48:08.932Z","updated_at":"2020-03-11T01:33:04.142Z","tags":{"osm_way_id":"353501525","wheelchair_boarding":"0"},"created_or_updated_in_changeset_id":5976,"name":"Muntinlupa PNR","timezone":"Asia/Manila","osm_way_id":353501525,"served_by_vehicle_types":["rail"],"parent_stop_onestop_id":null,"wheelchair_boarding":null,"geometry_reversegeo":null,"geometry_centroid":{"type":"Point","coordinates":[121.0476100445,14.3892498355]},"operators_serving_stop":[{"operator_name":"Philippine National Railways","operator_onestop_id":"o-wdw4-philippinenationalrailways"}],"routes_serving_stop":[{"operator_name":"Philippine National Railways","operator_onestop_id":"o-wdw4-philippinenationalrailways","route_name":"PNR MC","route_onestop_id":"r-wdw4-pnrmc"}],"title":"s-wdw1fe2pmy-muntinlupapnr"},"type":"Feature","id":"s-wdw1fe2pmy-muntinlupapnr"},{"geometry":{"type":"Point","coordinates":[121.0538005829,14.3645668301]},"properties":{"onestop_id":"s-wdw1dwuxwj-sanpedropnr","created_at":"2017-03-17T13:48:10.374Z","updated_at":"2020-03-04T22:20:04.056Z","tags":{"osm_way_id":"422608639","wheelchair_boarding":"0"},"created_or_updated_in_changeset_id":5976,"name":"San Pedro PNR","timezone":"Asia/Manila","osm_way_id":422608639,"served_by_vehicle_types":["rail"],"parent_stop_onestop_id":null,"wheelchair_boarding":null,"geometry_reversegeo":null,"geometry_centroid":{"type":"Point","coordinates":[121.0538005829,14.3645668301]},"operators_serving_stop":[{"operator_name":"Philippine National Railways","operator_onestop_id":"o-wdw4-philippinenationalrailways"}],"routes_serving_stop":[{"operator_name":"Philippine National Railways","operator_onestop_id":"o-wdw4-philippinenationalrailways","route_name":"PNR MC","route_onestop_id":"r-wdw4-pnrmc"}],"title":"s-wdw1dwuxwj-sanpedropnr"},"type":"Feature","id":"s-wdw1dwuxwj-sanpedropnr"}],"meta":{"sort_key":"id","sort_order":"asc","per_page":"false"},"type":"FeatureCollection"}